UBX-NAV-PVT, len: 92
	itow: 8703000, year: 2015, month: 10, day: 18, hour: 2, min: 25, sec: 3, 
	valid: date: n, time: n, fully resolved: n, mag: n, tAcc: 4294967295ns, nano: 0ns, 
	fixType: no fix, 
	flags: gnssFixOK: n, diffSoln: n, psmState: 0, headVehValid: n, carrSoln: 0, 
	flags2: confirmedAvai: n, confirmedDate: n, confirmedTime: n, 
	numSV: 0, lon: 0 deg, lat: 0 deg, height: 0mm, hMSL: -17000mm, hAcc: 4294967295mm, vAcc: 3754037248mm, 
	velN: 0mm/S, velE: 0mm/S, velD: 0mm/S, gSpeed: 0mm/S, headMot: 0 deg, sAcc: 20000mm/S, headAcc: 180 deg, pDop: 99.99
	flags3: invalidLlh: n, lastCorrectionAge: Not available, , headVeh: 0 deg, magDec: 0 deg, magAcc: 0 deg, (96 === 96)
UBX-NAV-DOP, len: 18, 
	itow: 8703000, gdop: 99.99, pdop: 99.99, tdop: 99.99, vdop: 99.99, hdop: 99.99, ndop: 99.99, edop: 99.99
ble: 0100000018cc8400df070a12021903f0ffffffff000000000000040000000000000000000000000098bdffffffffffff0010c2df0000000000000000000000000000000000000000204e000080a8120100000f270f270f270f270f270f270f2701000000
UBX-NAV-PVT, len: 92
	itow: 8713000, year: 2015, month: 10, day: 18, hour: 2, min: 25, sec: 13, 
	valid: date: n, time: n, fully resolved: n, mag: n, tAcc: 4294967295ns, nano: 0ns, 
	fixType: no fix, 
	flags: gnssFixOK: n, diffSoln: n, psmState: 0, headVehValid: n, carrSoln: 0, 
	flags2: confirmedAvai: n, confirmedDate: n, confirmedTime: n, 
	numSV: 0, lon: 0 deg, lat: 0 deg, height: 0mm, hMSL: -17000mm, hAcc: 4294967295mm, vAcc: 3754046720mm, 
	velN: 0mm/S, velE: 0mm/S, velD: 0mm/S, gSpeed: 0mm/S, headMot: 0 deg, sAcc: 20000mm/S, headAcc: 180 deg, pDop: 99.99
	flags3: invalidLlh: n, lastCorrectionAge: Not available, , headVeh: 0 deg, magDec: 0 deg, magAcc: 0 deg, (96 === 96)
UBX-NAV-DOP, len: 18, 
	itow: 8713000, gdop: 99.99, pdop: 99.99, tdop: 99.99, vdop: 99.99, hdop: 99.99, ndop: 99.99, edop: 99.99
ble: 0200000028f38400df070a1202190df0ffffffff000000000000040000000000000000000000000098bdffffffffffff0035c2df0000000000000000000000000000000000000000204e000080a8120100000f270f270f270f270f270f270f2702000000
UBX-NAV-PVT, len: 92
	itow: 8723000, year: 2015, month: 10, day: 18, hour: 2, min: 25, sec: 23, 
	valid: date: n, time: n, fully resolved: n, mag: n, tAcc: 4294967295ns, nano: 0ns, 
	fixType: no fix, 
	flags: gnssFixOK: n, diffSoln: n, psmState: 0, headVehValid: n, carrSoln: 0, 
	flags2: confirmedAvai: n, confirmedDate: n, confirmedTime: n, 
	numSV: 0, lon: 0 deg, lat: 0 deg, height: 0mm, hMSL: -17000mm, hAcc: 4294967295mm, vAcc: 3754055936mm, 
	velN: 0mm/S, velE: 0mm/S, velD: 0mm/S, gSpeed: 0mm/S, headMot: 0 deg, sAcc: 20000mm/S, headAcc: 180 deg, pDop: 99.99
	flags3: invalidLlh: n, lastCorrectionAge: Not available, , headVeh: 0 deg, magDec: 0 deg, magAcc: 0 deg, (96 === 96)
UBX-NAV-DOP, len: 18, 
	itow: 8723000, gdop: 99.99, pdop: 99.99, tdop: 99.99, vdop: 99.99, hdop: 99.99, ndop: 99.99, edop: 99.99
ble: 03000000381a8500df070a12021917f0ffffffff000000000000040000000000000000000000000098bdffffffffffff0059c2df0000000000000000000000000000000000000000204e000080a8120100000f270f270f270f270f270f270f2703000000
UBX-NAV-PVT, len: 92
	itow: 8733000, year: 2015, month: 10, day: 18, hour: 2, min: 25, sec: 33, 
	valid: date: n, time: n, fully resolved: n, mag: n, tAcc: 4294967295ns, nano: 0ns, 
	fixType: no fix, 
	flags: gnssFixOK: n, diffSoln: n, psmState: 0, headVehValid: n, carrSoln: 0, 
	flags2: confirmedAvai: n, confirmedDate: n, confirmedTime: n, 
	numSV: 0, lon: 0 deg, lat: 0 deg, height: 0mm, hMSL: -17000mm, hAcc: 4294967295mm, vAcc: 3754065152mm, 
	velN: 0mm/S, velE: 0mm/S, velD: 0mm/S, gSpeed: 0mm/S, headMot: 0 deg, sAcc: 20000mm/S, headAcc: 180 deg, pDop: 99.99
	flags3: invalidLlh: n, lastCorrectionAge: Not available, , headVeh: 0 deg, magDec: 0 deg, magAcc: 0 deg, (96 === 96)
UBX-NAV-DOP, len: 18, 
	itow: 8733000, gdop: 99.99, pdop: 99.99, tdop: 99.99, vdop: 99.99, hdop: 99.99, ndop: 99.99, edop: 99.99
ble: 0400000048418500df070a12021921f0ffffffff000000000000040000000000000000000000000098bdffffffffffff007dc2df0000000000000000000000000000000000000000204e000080a8120100000f270f270f270f270f270f270f2704000000
UBX-NAV-PVT, len: 92
	itow: 8743000, year: 2015, month: 10, day: 18, hour: 2, min: 25, sec: 43, 
	valid: date: n, time: n, fully resolved: n, mag: n, tAcc: 4294967295ns, nano: 0ns, 
	fixType: no fix, 
	flags: gnssFixOK: n, diffSoln: n, psmState: 0, headVehValid: n, carrSoln: 0, 
	flags2: confirmedAvai: n, confirmedDate: n, confirmedTime: n, 
	numSV: 0, lon: 0 deg, lat: 0 deg, height: 0mm, hMSL: -17000mm, hAcc: 4294967295mm, vAcc: 3754074624mm, 
	velN: 0mm/S, velE: 0mm/S, velD: 0mm/S, gSpeed: 0mm/S, headMot: 0 deg, sAcc: 20000mm/S, headAcc: 180 deg, pDop: 99.99
	flags3: invalidLlh: n, lastCorrectionAge: Not available, , headVeh: 0 deg, magDec: 0 deg, magAcc: 0 deg, (96 === 96)
UBX-NAV-DOP, len: 18, 
	itow: 8743000, gdop: 99.99, pdop: 99.99, tdop: 99.99, vdop: 99.99, hdop: 99.99, ndop: 99.99, edop: 99.99
ble: 0500000058688500df070a1202192bf0ffffffff000000000000040000000000000000000000000098bdffffffffffff00a2c2df0000000000000000000000000000000000000000204e000080a8120100000f270f270f270f270f270f270f2705000000
UBX-NAV-PVT, len: 92
	itow: 8753000, year: 2015, month: 10, day: 18, hour: 2, min: 25, sec: 53, 
	valid: date: n, time: n, fully resolved: n, mag: n, tAcc: 4294967295ns, nano: 0ns, 
	fixType: no fix, 
	flags: gnssFixOK: n, diffSoln: n, psmState: 0, headVehValid: n, carrSoln: 0, 
	flags2: confirmedAvai: n, confirmedDate: n, confirmedTime: n, 
	numSV: 0, lon: 0 deg, lat: 0 deg, height: 0mm, hMSL: -17000mm, hAcc: 4294967295mm, vAcc: 3754083840mm, 
	velN: 0mm/S, velE: 0mm/S, velD: 0mm/S, gSpeed: 0mm/S, headMot: 0 deg, sAcc: 20000mm/S, headAcc: 180 deg, pDop: 99.99
	flags3: invalidLlh: n, lastCorrectionAge: Not available, , headVeh: 0 deg, magDec: 0 deg, magAcc: 0 deg, (96 === 96)
UBX-NAV-DOP, len: 18, 
	itow: 8753000, gdop: 99.99, pdop: 99.99, tdop: 99.99, vdop: 99.99, hdop: 99.99, ndop: 99.99, edop: 99.99
ble: 06000000688f8500df070a12021935f0ffffffff000000000000040000000000000000000000000098bdffffffffffff00c6c2df0000000000000000000000000000000000000000204e000080a8120100000f270f270f270f270f270f270f2706000000
UBX-NAV-PVT, len: 92
	itow: 8763000, year: 2015, month: 10, day: 18, hour: 2, min: 26, sec: 3, 
	valid: date: n, time: n, fully resolved: n, mag: n, tAcc: 4294967295ns, nano: 0ns, 
	fixType: no fix, 
	flags: gnssFixOK: n, diffSoln: n, psmState: 0, headVehValid: n, carrSoln: 0, 
	flags2: confirmedAvai: n, confirmedDate: n, confirmedTime: n, 
	numSV: 0, lon: 0 deg, lat: 0 deg, height: 0mm, hMSL: -17000mm, hAcc: 4294967295mm, vAcc: 3754093312mm, 
	velN: 0mm/S, velE: 0mm/S, velD: 0mm/S, gSpeed: 0mm/S, headMot: 0 deg, sAcc: 20000mm/S, headAcc: 180 deg, pDop: 99.99
	flags3: invalidLlh: n, lastCorrectionAge: Not available, , headVeh: 0 deg, magDec: 0 deg, magAcc: 0 deg, (96 === 96)
UBX-NAV-DOP, len: 18, 
	itow: 8763000, gdop: 99.99, pdop: 99.99, tdop: 99.99, vdop: 99.99, hdop: 99.99, ndop: 99.99, edop: 99.99
ble: 0700000078b68500df070a12021a03f0ffffffff000000000000040000000000000000000000000098bdffffffffffff00ebc2df0000000000000000000000000000000000000000204e000080a8120100000f270f270f270f270f270f270f2707000000
UBX-NAV-PVT, len: 92
	itow: 8773000, year: 2015, month: 10, day: 18, hour: 2, min: 26, sec: 13, 
	valid: date: n, time: n, fully resolved: n, mag: n, tAcc: 4294967295ns, nano: 0ns, 
	fixType: no fix, 
	flags: gnssFixOK: n, diffSoln: n, psmState: 0, headVehValid: n, carrSoln: 0, 
	flags2: confirmedAvai: n, confirmedDate: n, confirmedTime: n, 
	numSV: 0, lon: 0 deg, lat: 0 deg, height: 0mm, hMSL: -17000mm, hAcc: 4294967295mm, vAcc: 3754102528mm, 
	velN: 0mm/S, velE: 0mm/S, velD: 0mm/S, gSpeed: 0mm/S, headMot: 0 deg, sAcc: 20000mm/S, headAcc: 180 deg, pDop: 99.99
	flags3: invalidLlh: n, lastCorrectionAge: Not available, , headVeh: 0 deg, magDec: 0 deg, magAcc: 0 deg, (96 === 96)
UBX-NAV-DOP, len: 18, 
	itow: 8773000, gdop: 99.99, pdop: 99.99, tdop: 99.99, vdop: 99.99, hdop: 99.99, ndop: 99.99, edop: 99.99
ble: 0800000088dd8500df070a12021a0df0ffffffff000000000000040000000000000000000000000098bdffffffffffff000fc3df0000000000000000000000000000000000000000204e000080a8120100000f270f270f270f270f270f270f2708000000
UBX-NAV-PVT, len: 92
	itow: 8783000, year: 2015, month: 10, day: 18, hour: 2, min: 26, sec: 23, 
	valid: date: n, time: n, fully resolved: n, mag: n, tAcc: 4294967295ns, nano: 0ns, 
	fixType: no fix, 
	flags: gnssFixOK: n, diffSoln: n, psmState: 0, headVehValid: n, carrSoln: 0, 
	flags2: confirmedAvai: n, confirmedDate: n, confirmedTime: n, 
	numSV: 0, lon: 0 deg, lat: 0 deg, height: 0mm, hMSL: -17000mm, hAcc: 4294967295mm, vAcc: 3754112000mm, 
	velN: 0mm/S, velE: 0mm/S, velD: 0mm/S, gSpeed: 0mm/S, headMot: 0 deg, sAcc: 20000mm/S, headAcc: 180 deg, pDop: 99.99
	flags3: invalidLlh: n, lastCorrectionAge: Not available, , headVeh: 0 deg, magDec: 0 deg, magAcc: 0 deg, (96 === 96)
UBX-NAV-DOP, len: 18, 
	itow: 8783000, gdop: 99.99, pdop: 99.99, tdop: 99.99, vdop: 99.99, hdop: 99.99, ndop: 99.99, edop: 99.99
ble: 0900000098048600df070a12021a17f0ffffffff000000000000040000000000000000000000000098bdffffffffffff0034c3df0000000000000000000000000000000000000000204e000080a8120100000f270f270f270f270f270f270f2709000000
UBX-NAV-PVT, len: 92
	itow: 8793000, year: 2015, month: 10, day: 18, hour: 2, min: 26, sec: 33, 
	valid: date: n, time: n, fully resolved: n, mag: n, tAcc: 4294967295ns, nano: 0ns, 
	fixType: no fix, 
	flags: gnssFixOK: n, diffSoln: n, psmState: 0, headVehValid: n, carrSoln: 0, 
	flags2: confirmedAvai: n, confirmedDate: n, confirmedTime: n, 
	numSV: 0, lon: 0 deg, lat: 0 deg, height: 0mm, hMSL: -17000mm, hAcc: 4294967295mm, vAcc: 3754121216mm, 
	velN: 0mm/S, velE: 0mm/S, velD: 0mm/S, gSpeed: 0mm/S, headMot: 0 deg, sAcc: 20000mm/S, headAcc: 180 deg, pDop: 99.99
	flags3: invalidLlh: n, lastCorrectionAge: Not available, , headVeh: 0 deg, magDec: 0 deg, magAcc: 0 deg, (96 === 96)
UBX-NAV-DOP, len: 18, 
	itow: 8793000, gdop: 99.99, pdop: 99.99, tdop: 99.99, vdop: 99.99, hdop: 99.99, ndop: 99.99, edop: 99.99
ble: 0a000000a82b8600df070a12021a21f0ffffffff000000000000040000000000000000000000000098bdffffffffffff0058c3df0000000000000000000000000000000000000000204e000080a8120100000f270f270f270f270f270f270f270a000000
UBX-NAV-PVT, len: 92
	itow: 8803000, year: 2015, month: 10, day: 18, hour: 2, min: 26, sec: 43, 
	valid: date: n, time: n, fully resolved: n, mag: n, tAcc: 4294967295ns, nano: 0ns, 
	fixType: no fix, 
	flags: gnssFixOK: n, diffSoln: n, psmState: 0, headVehValid: n, carrSoln: 0, 
	flags2: confirmedAvai: n, confirmedDate: n, confirmedTime: n, 
	numSV: 0, lon: 0 deg, lat: 0 deg, height: 0mm, hMSL: -17000mm, hAcc: 4294967295mm, vAcc: 3754130688mm, 
	velN: 0mm/S, velE: 0mm/S, velD: 0mm/S, gSpeed: 0mm/S, headMot: 0 deg, sAcc: 20000mm/S, headAcc: 180 deg, pDop: 99.99
	flags3: invalidLlh: n, lastCorrectionAge: Not available, , headVeh: 0 deg, magDec: 0 deg, magAcc: 0 deg, (96 === 96)
UBX-NAV-DOP, len: 18, 
	itow: 8803000, gdop: 99.99, pdop: 99.99, tdop: 99.99, vdop: 99.99, hdop: 99.99, ndop: 99.99, edop: 99.99
ble: 0b000000b8528600df070a12021a2bf0ffffffff000000000000040000000000000000000000000098bdffffffffffff007dc3df0000000000000000000000000000000000000000204e000080a8120100000f270f270f270f270f270f270f270b000000
UBX-NAV-PVT, len: 92
	itow: 8813000, year: 2015, month: 10, day: 18, hour: 2, min: 26, sec: 53, 
	valid: date: n, time: n, fully resolved: n, mag: n, tAcc: 4294967295ns, nano: 0ns, 
	fixType: no fix, 
	flags: gnssFixOK: n, diffSoln: n, psmState: 0, headVehValid: n, carrSoln: 0, 
	flags2: confirmedAvai: n, confirmedDate: n, confirmedTime: n, 
	numSV: 0, lon: 0 deg, lat: 0 deg, height: 0mm, hMSL: -17000mm, hAcc: 4294967295mm, vAcc: 3754139904mm, 
	velN: 0mm/S, velE: 0mm/S, velD: 0mm/S, gSpeed: 0mm/S, headMot: 0 deg, sAcc: 20000mm/S, headAcc: 180 deg, pDop: 99.99
	flags3: invalidLlh: n, lastCorrectionAge: Not available, , headVeh: 0 deg, magDec: 0 deg, magAcc: 0 deg, (96 === 96)
UBX-NAV-DOP, len: 18, 
	itow: 8813000, gdop: 99.99, pdop: 99.99, tdop: 99.99, vdop: 99.99, hdop: 99.99, ndop: 99.99, edop: 99.99
ble: 0c000000c8798600df070a12021a35f0ffffffff000000000000040000000000000000000000000098bdffffffffffff00a1c3df0000000000000000000000000000000000000000204e000080a8120100000f270f270f270f270f270f270f270c000000
UBX-NAV-PVT, len: 92
	itow: 8823000, year: 2015, month: 10, day: 18, hour: 2, min: 27, sec: 3, 
	valid: date: n, time: n, fully resolved: n, mag: n, tAcc: 4294967295ns, nano: 0ns, 
	fixType: no fix, 
	flags: gnssFixOK: n, diffSoln: n, psmState: 0, headVehValid: n, carrSoln: 0, 
	flags2: confirmedAvai: n, confirmedDate: n, confirmedTime: n, 
	numSV: 0, lon: 0 deg, lat: 0 deg, height: 0mm, hMSL: -17000mm, hAcc: 4294967295mm, vAcc: 3754149376mm, 
	velN: 0mm/S, velE: 0mm/S, velD: 0mm/S, gSpeed: 0mm/S, headMot: 0 deg, sAcc: 20000mm/S, headAcc: 180 deg, pDop: 99.99
	flags3: invalidLlh: n, lastCorrectionAge: Not available, , headVeh: 0 deg, magDec: 0 deg, magAcc: 0 deg, (96 === 96)
UBX-NAV-DOP, len: 18, 
	itow: 8823000, gdop: 99.99, pdop: 99.99, tdop: 99.99, vdop: 99.99, hdop: 99.99, ndop: 99.99, edop: 99.99
ble: 0d000000d8a08600df070a12021b03f0ffffffff000000000000040000000000000000000000000098bdffffffffffff00c6c3df0000000000000000000000000000000000000000204e000080a8120100000f270f270f270f270f270f270f270d000000
UBX-NAV-PVT, len: 92
	itow: 8833000, year: 2015, month: 10, day: 18, hour: 2, min: 27, sec: 13, 
	valid: date: n, time: n, fully resolved: n, mag: n, tAcc: 4294967295ns, nano: 0ns, 
	fixType: no fix, 
	flags: gnssFixOK: n, diffSoln: n, psmState: 0, headVehValid: n, carrSoln: 0, 
	flags2: confirmedAvai: n, confirmedDate: n, confirmedTime: n, 
	numSV: 0, lon: 0 deg, lat: 0 deg, height: 0mm, hMSL: -17000mm, hAcc: 4294967295mm, vAcc: 3754158848mm, 
	velN: 0mm/S, velE: 0mm/S, velD: 0mm/S, gSpeed: 0mm/S, headMot: 0 deg, sAcc: 20000mm/S, headAcc: 180 deg, pDop: 99.99
	flags3: invalidLlh: n, lastCorrectionAge: Not available, , headVeh: 0 deg, magDec: 0 deg, magAcc: 0 deg, (96 === 96)
UBX-NAV-DOP, len: 18, 
	itow: 8833000, gdop: 99.99, pdop: 99.99, tdop: 99.99, vdop: 99.99, hdop: 99.99, ndop: 99.99, edop: 99.99
ble: 0e000000e8c78600df070a12021b0df0ffffffff000000000000040000000000000000000000000098bdffffffffffff00ebc3df0000000000000000000000000000000000000000204e000080a8120100000f270f270f270f270f270f270f270e000000
UBX-NAV-PVT, len: 92
	itow: 8843000, year: 2015, month: 10, day: 18, hour: 2, min: 27, sec: 23, 
	valid: date: n, time: n, fully resolved: n, mag: n, tAcc: 4294967295ns, nano: 0ns, 
	fixType: no fix, 
	flags: gnssFixOK: n, diffSoln: n, psmState: 0, headVehValid: n, carrSoln: 0, 
	flags2: confirmedAvai: n, confirmedDate: n, confirmedTime: n, 
	numSV: 0, lon: 0 deg, lat: 0 deg, height: 0mm, hMSL: -17000mm, hAcc: 4294967295mm, vAcc: 3754168320mm, 
	velN: 0mm/S, velE: 0mm/S, velD: 0mm/S, gSpeed: 0mm/S, headMot: 0 deg, sAcc: 20000mm/S, headAcc: 180 deg, pDop: 99.99
	flags3: invalidLlh: n, lastCorrectionAge: Not available, , headVeh: 0 deg, magDec: 0 deg, magAcc: 0 deg, (96 === 96)
UBX-NAV-DOP, len: 18, 
	itow: 8843000, gdop: 99.99, pdop: 99.99, tdop: 99.99, vdop: 99.99, hdop: 99.99, ndop: 99.99, edop: 99.99
ble: 0f000000f8ee8600df070a12021b17f0ffffffff000000000000040000000000000000000000000098bdffffffffffff0010c4df0000000000000000000000000000000000000000204e000080a8120100000f270f270f270f270f270f270f270f000000
UBX-NAV-PVT, len: 92
	itow: 8853000, year: 2015, month: 10, day: 18, hour: 2, min: 27, sec: 33, 
	valid: date: n, time: n, fully resolved: n, mag: n, tAcc: 4294967295ns, nano: 0ns, 
	fixType: no fix, 
	flags: gnssFixOK: n, diffSoln: n, psmState: 0, headVehValid: n, carrSoln: 0, 
	flags2: confirmedAvai: n, confirmedDate: n, confirmedTime: n, 
	numSV: 0, lon: 0 deg, lat: 0 deg, height: 0mm, hMSL: -17000mm, hAcc: 4294967295mm, vAcc: 3754177792mm, 
	velN: 0mm/S, velE: 0mm/S, velD: 0mm/S, gSpeed: 0mm/S, headMot: 0 deg, sAcc: 20000mm/S, headAcc: 180 deg, pDop: 99.99
	flags3: invalidLlh: n, lastCorrectionAge: Not available, , headVeh: 0 deg, magDec: 0 deg, magAcc: 0 deg, (96 === 96)
UBX-NAV-DOP, len: 18, 
	itow: 8853000, gdop: 99.99, pdop: 99.99, tdop: 99.99, vdop: 99.99, hdop: 99.99, ndop: 99.99, edop: 99.99
ble: 1000000008168700df070a12021b21f0ffffffff000000000000040000000000000000000000000098bdffffffffffff0035c4df0000000000000000000000000000000000000000204e000080a8120100000f270f270f270f270f270f270f2710000000
UBX-NAV-PVT, len: 92
	itow: 8863000, year: 2015, month: 10, day: 18, hour: 2, min: 27, sec: 43, 
	valid: date: n, time: n, fully resolved: n, mag: n, tAcc: 4294967295ns, nano: 0ns, 
	fixType: no fix, 
	flags: gnssFixOK: n, diffSoln: n, psmState: 0, headVehValid: n, carrSoln: 0, 
	flags2: confirmedAvai: n, confirmedDate: n, confirmedTime: n, 
	numSV: 0, lon: 0 deg, lat: 0 deg, height: 0mm, hMSL: -17000mm, hAcc: 4294967295mm, vAcc: 3754187264mm, 
	velN: 0mm/S, velE: 0mm/S, velD: 0mm/S, gSpeed: 0mm/S, headMot: 0 deg, sAcc: 20000mm/S, headAcc: 180 deg, pDop: 99.99
	flags3: invalidLlh: n, lastCorrectionAge: Not available, , headVeh: 0 deg, magDec: 0 deg, magAcc: 0 deg, (96 === 96)
UBX-NAV-DOP, len: 18, 
	itow: 8863000, gdop: 99.99, pdop: 99.99, tdop: 99.99, vdop: 99.99, hdop: 99.99, ndop: 99.99, edop: 99.99
ble: 11000000183d8700df070a12021b2bf0ffffffff000000000000040000000000000000000000000098bdffffffffffff005ac4df0000000000000000000000000000000000000000204e000080a8120100000f270f270f270f270f270f270f2711000000
UBX-NAV-PVT, len: 92
	itow: 560719000, year: 2015, month: 10, day: 24, hour: 11, min: 45, sec: 2, 
	valid: date: n, time: y, fully resolved: n, mag: n, tAcc: 4294967295ns, nano: 208ns, 
	fixType: no fix, 
	flags: gnssFixOK: n, diffSoln: n, psmState: 0, headVehValid: n, carrSoln: 0, 
	flags2: confirmedAvai: n, confirmedDate: n, confirmedTime: n, 
	numSV: 0, lon: 0 deg, lat: 0 deg, height: 0mm, hMSL: -17000mm, hAcc: 4294967295mm, vAcc: 3754193152mm, 
	velN: 0mm/S, velE: 0mm/S, velD: 0mm/S, gSpeed: 0mm/S, headMot: 0 deg, sAcc: 20000mm/S, headAcc: 180 deg, pDop: 99.99
	flags3: invalidLlh: n, lastCorrectionAge: Not available, , headVeh: 0 deg, magDec: 0 deg, magAcc: 0 deg, (96 === 96)
UBX-NAV-DOP, len: 18, 
	itow: 560719000, gdop: 99.99, pdop: 99.99, tdop: 99.99, vdop: 99.99, hdop: 99.99, ndop: 99.99, edop: 99.99
ble: 1200000098e46b21df070a180b2d02f2ffffffffd00000000000040000000000000000000000000098bdffffffffffff0071c4df0000000000000000000000000000000000000000204e000080a8120100000f270f270f270f270f270f270f2712000000
UBX-NAV-PVT, len: 92
	itow: 560729000, year: 2022, month: 5, day: 21, hour: 11, min: 45, sec: 11, 
	valid: date: y, time: y, fully resolved: y, mag: n, tAcc: 20001002ns, nano: 104ns, 
	fixType: no fix, 
	flags: gnssFixOK: n, diffSoln: n, psmState: 0, headVehValid: n, carrSoln: 0, 
	flags2: confirmedAvai: n, confirmedDate: n, confirmedTime: n, 
	numSV: 0, lon: 117.0735544 deg, lat: 24.8618833 deg, height: 3753986mm, hMSL: 3749316mm, hAcc: 4294967295mm, vAcc: 3754193152mm, 
	velN: 0mm/S, velE: 0mm/S, velD: 0mm/S, gSpeed: 0mm/S, headMot: 0 deg, sAcc: 20000mm/S, headAcc: 180 deg, pDop: 99.99
	flags3: invalidLlh: n, lastCorrectionAge: Not available, , headVeh: 0 deg, magDec: 0 deg, magAcc: 0 deg, (96 === 96)
UBX-NAV-DOP, len: 18, 
	itow: 560729000, gdop: 99.99, pdop: 99.99, tdop: 99.99, vdop: 99.99, hdop: 99.99, ndop: 99.99, edop: 99.99
ble: 13000000a80b6c21e60705150b2d0bf7ea3031016800000000000400b801c845519fd10e02483900c4353900ffffffff0071c4df0000000000000000000000000000000000000000204e000080a8120100000f270f270f270f270f270f270f2713000000
UBX-NAV-PVT, len: 92
	itow: 560739000, year: 2022, month: 5, day: 21, hour: 11, min: 45, sec: 21, 
	valid: date: y, time: y, fully resolved: y, mag: n, tAcc: 20001002ns, nano: -36ns, 
	fixType: no fix, 
	flags: gnssFixOK: n, diffSoln: n, psmState: 0, headVehValid: n, carrSoln: 0, 
	flags2: confirmedAvai: n, confirmedDate: n, confirmedTime: n, 
	numSV: 0, lon: 116.6276156 deg, lat: 25.7599395 deg, height: 4011688mm, hMSL: 4009635mm, hAcc: 4294967295mm, vAcc: 3754193152mm, 
	velN: 0mm/S, velE: 0mm/S, velD: 0mm/S, gSpeed: 0mm/S, headMot: 0 deg, sAcc: 20000mm/S, headAcc: 180 deg, pDop: 99.99
	flags3: invalidLlh: n, lastCorrectionAge: Not available, , headVeh: 0 deg, magDec: 0 deg, magAcc: 0 deg, (96 === 96)
UBX-NAV-DOP, len: 18, 
	itow: 560739000, gdop: 99.99, pdop: 99.99, tdop: 99.99, vdop: 99.99, hdop: 99.99, ndop: 99.99, edop: 99.99
ble: 14000000b8326c21e60705150b2d15f7ea303101dcffffff000004003cf68345a3a75a0fa8363d00a32e3d00ffffffff0071c4df0000000000000000000000000000000000000000204e000080a8120100000f270f270f270f270f270f270f2714000000
UBX-NAV-PVT, len: 92
	itow: 560748000, year: 2022, month: 5, day: 21, hour: 11, min: 45, sec: 30, 
	valid: date: y, time: y, fully resolved: y, mag: n, tAcc: 1177ns, nano: 218258ns, 
	fixType: 3D-fix, 
	flags: gnssFixOK: y, diffSoln: n, psmState: 0, headVehValid: n, carrSoln: 0, 
	flags2: confirmedAvai: n, confirmedDate: n, confirmedTime: n, 
	numSV: 6, lon: 121.2232672 deg, lat: 31.1369107 deg, height: 24982mm, hMSL: 15665mm, hAcc: 30102mm, vAcc: 65503mm, 
	velN: -51mm/S, velE: -26mm/S, velD: -135mm/S, gSpeed: 57mm/S, headMot: 0 deg, sAcc: 1276mm/S, headAcc: 77.84973 deg, pDop: 7.49
	flags3: invalidLlh: n, lastCorrectionAge: Not available, , headVeh: 0 deg, magDec: 0 deg, magAcc: 0 deg, (96 === 96)
UBX-NAV-DOP, len: 18, 
	itow: 560748000, gdop: 9.74, pdop: 7.49, tdop: 6.23, vdop: 6.9, hdop: 2.92, ndop: 1.8, edop: 2.29
ble: 15000000e0556c21e60705150b2d1ef7990400009254030003010a06e0334148931d8f1296610000313d000096750000dfff0000cdffffffe6ffffff79ffffff3900000000000000fc0400000dca76000000ce03ed026f02b2022401b400e50015000000
UBX-NAV-PVT, len: 92
	itow: 560758000, year: 2022, month: 5, day: 21, hour: 11, min: 45, sec: 40, 
	valid: date: y, time: y, fully resolved: y, mag: n, tAcc: 1117ns, nano: 219388ns, 
	fixType: 3D-fix, 
	flags: gnssFixOK: y, diffSoln: n, psmState: 0, headVehValid: n, carrSoln: 0, 
	flags2: confirmedAvai: n, confirmedDate: n, confirmedTime: n, 
	numSV: 6, lon: 121.2233085 deg, lat: 31.1369173 deg, height: 18647mm, hMSL: 9330mm, hAcc: 20505mm, vAcc: 41042mm, 
	velN: 191mm/S, velE: 233mm/S, velD: 49mm/S, gSpeed: 301mm/S, headMot: 0 deg, sAcc: 743mm/S, headAcc: 78.39938 deg, pDop: 7.47
	flags3: invalidLlh: n, lastCorrectionAge: Not available, , headVeh: 0 deg, magDec: 0 deg, magAcc: 0 deg, (96 === 96)
UBX-NAV-DOP, len: 18, 
	itow: 560758000, gdop: 9.72, pdop: 7.47, tdop: 6.21, vdop: 6.88, hdop: 2.9, ndop: 1.8, edop: 2.28
ble: 16000000f07c6c21e60705150b2d28f75d040000fc58030003010a067d354148d51d8f12d7480000722400001950000052a00000bf000000e9000000310000002d01000000000000e7020000c2a077000000cc03eb026d02b0022201b400e40016000000
UBX-NAV-PVT, len: 92
	itow: 560768000, year: 2022, month: 5, day: 21, hour: 11, min: 45, sec: 50, 
	valid: date: y, time: y, fully resolved: y, mag: n, tAcc: 1105ns, nano: 220507ns, 
	fixType: 3D-fix, 
	flags: gnssFixOK: y, diffSoln: n, psmState: 0, headVehValid: n, carrSoln: 0, 
	flags2: confirmedAvai: n, confirmedDate: n, confirmedTime: n, 
	numSV: 6, lon: 121.2233291 deg, lat: 31.13692 deg, height: 15006mm, hMSL: 5688mm, hAcc: 19300mm, vAcc: 35766mm, 
	velN: -168mm/S, velE: -40mm/S, velD: 140mm/S, gSpeed: 173mm/S, headMot: 0 deg, sAcc: 710mm/S, headAcc: 78.98647 deg, pDop: 7.45
	flags3: invalidLlh: n, lastCorrectionAge: Not available, , headVeh: 0 deg, magDec: 0 deg, magAcc: 0 deg, (96 === 96)
UBX-NAV-DOP, len: 18, 
	itow: 560768000, gdop: 9.69, pdop: 7.45, tdop: 6.19, vdop: 6.86, hdop: 2.89, ndop: 1.79, edop: 2.27
ble: 1700000000a46c21e60705150b2d32f7510400005b5d030003010a064b364148f01d8f129e3a000038160000644b0000b68b000058ffffffd8ffffff8c000000ad00000000000000c6020000178678000000c903e9026b02ae022101b300e30017000000
UBX-NAV-PVT, len: 92
	itow: 560778000, year: 2022, month: 5, day: 21, hour: 11, min: 46, sec: 0, 
	valid: date: y, time: y, fully resolved: y, mag: n, tAcc: 1048ns, nano: 221586ns, 
	fixType: 3D-fix, 
	flags: gnssFixOK: y, diffSoln: n, psmState: 0, headVehValid: n, carrSoln: 0, 
	flags2: confirmedAvai: n, confirmedDate: n, confirmedTime: n, 
	numSV: 6, lon: 121.2232273 deg, lat: 31.1368772 deg, height: 18989mm, hMSL: 9672mm, hAcc: 8470mm, vAcc: 18406mm, 
	velN: -713mm/S, velE: -1064mm/S, velD: 158mm/S, gSpeed: 1281mm/S, headMot: 242.76287 deg, sAcc: 543mm/S, headAcc: 14.48655 deg, pDop: 7.43
	flags3: invalidLlh: n, lastCorrectionAge: Not available, , headVeh: 0 deg, magDec: 0 deg, magAcc: 0 deg, (96 === 96)
UBX-NAV-DOP, len: 18, 
	itow: 560778000, gdop: 9.66, pdop: 7.43, tdop: 6.18, vdop: 6.85, hdop: 2.88, ndop: 1.79, edop: 2.26
ble: 1800000010cb6c21e60705150b2e00f7180400009261030003010a0651324148441c8f122d4a0000c825000016210000e647000037fdffffd8fbffff9e000000010500003f6d72011f020000cf1a16000000c603e7026a02ad022001b300e20018000000
UBX-NAV-PVT, len: 92
	itow: 560788000, year: 2022, month: 5, day: 21, hour: 11, min: 46, sec: 10, 
	valid: date: y, time: y, fully resolved: y, mag: n, tAcc: 39ns, nano: 222678ns, 
	fixType: 3D-fix, 
	flags: gnssFixOK: y, diffSoln: n, psmState: 0, headVehValid: n, carrSoln: 0, 
	flags2: confirmedAvai: n, confirmedDate: n, confirmedTime: n, 
	numSV: 7, lon: 121.22313 deg, lat: 31.1368246 deg, height: 17106mm, hMSL: 7789mm, hAcc: 6613mm, vAcc: 14993mm, 
	velN: -410mm/S, velE: -1254mm/S, velD: -66mm/S, gSpeed: 1319mm/S, headMot: 243.64875 deg, sAcc: 492mm/S, headAcc: 24.26287 deg, pDop: 6.93
	flags3: invalidLlh: n, lastCorrectionAge: Not available, , headVeh: 0 deg, magDec: 0 deg, magAcc: 0 deg, (96 === 96)
UBX-NAV-DOP, len: 18, 
	itow: 560788000, gdop: 9.04, pdop: 6.93, tdop: 5.8, vdop: 6.32, hdop: 2.83, ndop: 1.78, edop: 2.2
ble: 1900000020f26c21e60705150b2e0a3727000000d665030003010a07842e4148361a8f12d24200006d1e0000d5190000913a000066feffff1afbffffbeffffff270500004bc77301ec010000af05250000008803b502440278021b01b200dc0019000000
UBX-NAV-PVT, len: 92
	itow: 560798000, year: 2022, month: 5, day: 21, hour: 11, min: 46, sec: 20, 
	valid: date: y, time: y, fully resolved: y, mag: n, tAcc: 39ns, nano: 223767ns, 
	fixType: 3D-fix, 
	flags: gnssFixOK: y, diffSoln: n, psmState: 0, headVehValid: n, carrSoln: 0, 
	flags2: confirmedAvai: n, confirmedDate: n, confirmedTime: n, 
	numSV: 7, lon: 121.222997 deg, lat: 31.1368626 deg, height: 16607mm, hMSL: 7291mm, hAcc: 6526mm, vAcc: 14961mm, 
	velN: 562mm/S, velE: -1101mm/S, velD: 99mm/S, gSpeed: 1236mm/S, headMot: 295.38126 deg, sAcc: 479mm/S, headAcc: 18.77011 deg, pDop: 6.9
	flags3: invalidLlh: n, lastCorrectionAge: Not available, , headVeh: 0 deg, magDec: 0 deg, magAcc: 0 deg, (96 === 96)
UBX-NAV-DOP, len: 18, 
	itow: 560798000, gdop: 9, pdop: 6.9, tdop: 5.78, vdop: 6.3, hdop: 2.82, ndop: 1.78, edop: 2.19
ble: 1a00000030196d21e60705150b2e143727000000176a030003010a0752294148b21b8f12df4000007b1c00007e190000713a000032020000b3fbffff63000000d40400004eb7c201df01000013a41c0000008403b202420276021a01b200db001a000000
UBX-NAV-PVT, len: 92
	itow: 560808000, year: 2022, month: 5, day: 21, hour: 11, min: 46, sec: 30, 
	valid: date: y, time: y, fully resolved: y, mag: n, tAcc: 40ns, nano: 224842ns, 
	fixType: 3D-fix, 
	flags: gnssFixOK: y, diffSoln: n, psmState: 0, headVehValid: n, carrSoln: 0, 
	flags2: confirmedAvai: n, confirmedDate: n, confirmedTime: n, 
	numSV: 7, lon: 121.2228568 deg, lat: 31.1368915 deg, height: 17025mm, hMSL: 7709mm, hAcc: 6906mm, vAcc: 15434mm, 
	velN: 122mm/S, velE: -1316mm/S, velD: 466mm/S, gSpeed: 1321mm/S, headMot: 275.53095 deg, sAcc: 405mm/S, headAcc: 19.46761 deg, pDop: 6.87
	flags3: invalidLlh: n, lastCorrectionAge: Not available, , headVeh: 0 deg, magDec: 0 deg, magAcc: 0 deg, (96 === 96)
UBX-NAV-DOP, len: 18, 
	itow: 560808000, gdop: 8.96, pdop: 6.87, tdop: 5.75, vdop: 6.27, hdop: 2.81, ndop: 1.77, edop: 2.18
ble: 1b00000040406d21e60705150b2e1e37280000004a6e030003010a07d8234148d31c8f12814200001d1e0000fa1a00004a3c00007a000000dcfaffffd201000029050000476da4019501000089b41d0000008003af023f0273021901b100da001b000000
UBX-NAV-PVT, len: 92
	itow: 560818000, year: 2022, month: 5, day: 21, hour: 11, min: 46, sec: 40, 
	valid: date: y, time: y, fully resolved: y, mag: n, tAcc: 38ns, nano: 225896ns, 
	fixType: 3D-fix, 
	flags: gnssFixOK: y, diffSoln: n, psmState: 0, headVehValid: n, carrSoln: 0, 
	flags2: confirmedAvai: n, confirmedDate: n, confirmedTime: n, 
	numSV: 7, lon: 121.2226913 deg, lat: 31.1368793 deg, height: 22863mm, hMSL: 13547mm, hAcc: 6486mm, vAcc: 14647mm, 
	velN: 65mm/S, velE: -1275mm/S, velD: 70mm/S, gSpeed: 1276mm/S, headMot: 272.20394 deg, sAcc: 384mm/S, headAcc: 17.34748 deg, pDop: 6.84
	flags3: invalidLlh: n, lastCorrectionAge: Not available, , headVeh: 0 deg, magDec: 0 deg, magAcc: 0 deg, (96 === 96)
UBX-NAV-DOP, len: 18, 
	itow: 560818000, gdop: 8.92, pdop: 6.84, tdop: 5.72, vdop: 6.24, hdop: 2.8, ndop: 1.77, edop: 2.17
ble: 1c00000050676d21e60705150b2e2837260000006872030003010a07611d4148591c8f124f590000eb34000056190000373900004100000005fbffff46000000fc040000aa599f01800100005c781a0000007c03ac023c0270021801b100d9001c000000
UBX-NAV-PVT, len: 92
	itow: 560828000, year: 2022, month: 5, day: 21, hour: 11, min: 46, sec: 50, 
	valid: date: y, time: y, fully resolved: y, mag: n, tAcc: 38ns, nano: 226953ns, 
	fixType: 3D-fix, 
	flags: gnssFixOK: y, diffSoln: n, psmState: 0, headVehValid: n, carrSoln: 0, 
	flags2: confirmedAvai: n, confirmedDate: n, confirmedTime: n, 
	numSV: 7, lon: 121.2225892 deg, lat: 31.1369035 deg, height: 25024mm, hMSL: 15709mm, hAcc: 6450mm, vAcc: 14418mm, 
	velN: -19mm/S, velE: -639mm/S, velD: 201mm/S, gSpeed: 639mm/S, headMot: 277.34005 deg, sAcc: 311mm/S, headAcc: 31.01875 deg, pDop: 6.81
	flags3: invalidLlh: n, lastCorrectionAge: Not available, , headVeh: 0 deg, magDec: 0 deg, magAcc: 0 deg, (96 === 96)
UBX-NAV-DOP, len: 18, 
	itow: 560828000, gdop: 8.88, pdop: 6.81, tdop: 5.7, vdop: 6.21, hdop: 2.79, ndop: 1.76, edop: 2.16
ble: 1d000000608e6d21e60705150b2e3237260000008976030003010a07641941484b1d8f12c06100005d3d00003219000052380000edffffff81fdffffc90000007f020000f52fa70137010000b3542f0000007803a9023a026d021701b000d8001d000000
UBX-NAV-PVT, len: 92
	itow: 560838000, year: 2022, month: 5, day: 21, hour: 11, min: 47, sec: 0, 
	valid: date: y, time: y, fully resolved: y, mag: n, tAcc: 42ns, nano: 228009ns, 
	fixType: 3D-fix, 
	flags: gnssFixOK: y, diffSoln: n, psmState: 0, headVehValid: n, carrSoln: 0, 
	flags2: confirmedAvai: n, confirmedDate: n, confirmedTime: n, 
	numSV: 7, lon: 121.2224884 deg, lat: 31.1369533 deg, height: 25278mm, hMSL: 15963mm, hAcc: 7324mm, vAcc: 15938mm, 
	velN: 813mm/S, velE: -387mm/S, velD: 345mm/S, gSpeed: 900mm/S, headMot: 326.12407 deg, sAcc: 541mm/S, headAcc: 32.21353 deg, pDop: 6.78
	flags3: invalidLlh: n, lastCorrectionAge: Not available, , headVeh: 0 deg, magDec: 0 deg, magAcc: 0 deg, (96 === 96)
UBX-NAV-DOP, len: 18, 
	itow: 560838000, gdop: 8.84, pdop: 6.78, tdop: 5.67, vdop: 6.19, hdop: 2.77, ndop: 1.76, edop: 2.15
ble: 1e00000070b56d21e60705150b2f00372a000000a97a030003010a07741541483d1f8f12be6200005b3e00009c1c0000423e00002d0300007dfeffff590100008403000037a0f1011d0200006927310000007403a60237026b021501b000d7001e000000
UBX-NAV-PVT, len: 92
	itow: 560848000, year: 2022, month: 5, day: 21, hour: 11, min: 47, sec: 10, 
	valid: date: y, time: y, fully resolved: y, mag: n, tAcc: 40ns, nano: 229064ns, 
	fixType: 3D-fix, 
	flags: gnssFixOK: y, diffSoln: n, psmState: 0, headVehValid: n, carrSoln: 0, 
	flags2: confirmedAvai: n, confirmedDate: n, confirmedTime: n, 
	numSV: 8, lon: 121.222475 deg, lat: 31.137049 deg, height: 25295mm, hMSL: 15980mm, hAcc: 7330mm, vAcc: 15675mm, 
	velN: 1076mm/S, velE: 534mm/S, velD: 384mm/S, gSpeed: 1201mm/S, headMot: 21.84269 deg, sAcc: 734mm/S, headAcc: 27.53418 deg, pDop: 6.62
	flags3: invalidLlh: n, lastCorrectionAge: Not available, , headVeh: 0 deg, magDec: 0 deg, magAcc: 0 deg, (96 === 96)
UBX-NAV-DOP, len: 18, 
	itow: 560848000, gdop: 8.65, pdop: 6.62, tdop: 5.56, vdop: 6.12, hdop: 2.53, ndop: 1.64, edop: 1.92
ble: 1f00000080dc6d21e60705150b2f0a3728000000c87e030003010a08ee144148fa228f12cf6200006c3e0000a21c00003b3d0000340400001602000080010000b10400004d542100de0200008a032a000000610396022c026402fd00a400c0001f000000
UBX-NAV-PVT, len: 92
	itow: 560858000, year: 2022, month: 5, day: 21, hour: 11, min: 47, sec: 20, 
	valid: date: y, time: y, fully resolved: y, mag: n, tAcc: 46ns, nano: 230144ns, 
	fixType: 3D-fix, 
	flags: gnssFixOK: y, diffSoln: n, psmState: 0, headVehValid: n, carrSoln: 0, 
	flags2: confirmedAvai: n, confirmedDate: n, confirmedTime: n, 
	numSV: 8, lon: 121.2225772 deg, lat: 31.1371266 deg, height: 16995mm, hMSL: 7679mm, hAcc: 8610mm, vAcc: 18058mm, 
	velN: 777mm/S, velE: 1086mm/S, velD: 704mm/S, gSpeed: 1335mm/S, headMot: 54.75902 deg, sAcc: 745mm/S, headAcc: 22.89981 deg, pDop: 6.59
	flags3: invalidLlh: n, lastCorrectionAge: Not available, , headVeh: 0 deg, magDec: 0 deg, magAcc: 0 deg, (96 === 96)
UBX-NAV-DOP, len: 18, 
	itow: 560858000, gdop: 8.61, pdop: 6.59, tdop: 5.54, vdop: 6.09, hdop: 2.52, ndop: 1.64, edop: 1.92
ble: 2000000090036e21e60705150b2f14372e0000000083030003010a08ec18414802268f1263420000ff1d0000a22100008a460000090300003e040000c0020000370500003e8e5300e90200003df1220000005d0393022a026102fc00a400c00020000000
UBX-NAV-PVT, len: 92
	itow: 560868000, year: 2022, month: 5, day: 21, hour: 11, min: 47, sec: 30, 
	valid: date: y, time: y, fully resolved: y, mag: n, tAcc: 54ns, nano: 231210ns, 
	fixType: 3D-fix, 
	flags: gnssFixOK: y, diffSoln: n, psmState: 0, headVehValid: n, carrSoln: 0, 
	flags2: confirmedAvai: n, confirmedDate: n, confirmedTime: n, 
	numSV: 8, lon: 121.2226583 deg, lat: 31.13717 deg, height: 12813mm, hMSL: 3498mm, hAcc: 10147mm, vAcc: 20933mm, 
	velN: 79mm/S, velE: 442mm/S, velD: 572mm/S, gSpeed: 449mm/S, headMot: 59.82541 deg, sAcc: 1033mm/S, headAcc: 42.29639 deg, pDop: 6.57
	flags3: invalidLlh: n, lastCorrectionAge: Not available, , headVeh: 0 deg, magDec: 0 deg, magAcc: 0 deg, (96 === 96)
UBX-NAV-DOP, len: 18, 
	itow: 560868000, gdop: 8.57, pdop: 6.57, tdop: 5.51, vdop: 6.07, hdop: 2.51, ndop: 1.63, edop: 1.91
ble: 21000000a02a6e21e60705150b2f1e37360000002a87030003010a08171c4148b4278f120d320000aa0d0000a3270000c55100004f000000ba0100003c020000c10100004d495b0009040000078a400000005903910227025f02fb00a300bf0021000000
UBX-NAV-PVT, len: 92
	itow: 560878000, year: 2022, month: 5, day: 21, hour: 11, min: 47, sec: 40, 
	valid: date: y, time: y, fully resolved: y, mag: n, tAcc: 53ns, nano: 232257ns, 
	fixType: 3D-fix, 
	flags: gnssFixOK: y, diffSoln: n, psmState: 0, headVehValid: n, carrSoln: 0, 
	flags2: confirmedAvai: n, confirmedDate: n, confirmedTime: n, 
	numSV: 8, lon: 121.2226682 deg, lat: 31.1372572 deg, height: 13089mm, hMSL: 3774mm, hAcc: 9939mm, vAcc: 20723mm, 
	velN: 1169mm/S, velE: -268mm/S, velD: 611mm/S, gSpeed: 1200mm/S, headMot: 5.22427 deg, sAcc: 734mm/S, headAcc: 30.91111 deg, pDop: 6.54
	flags3: invalidLlh: n, lastCorrectionAge: Not available, , headVeh: 0 deg, magDec: 0 deg, magAcc: 0 deg, (96 === 96)
UBX-NAV-DOP, len: 18, 
	itow: 560878000, gdop: 8.54, pdop: 6.54, tdop: 5.49, vdop: 6.04, hdop: 2.5, ndop: 1.63, edop: 1.9
ble: 22000000b0516e21e60705150b2f283735000000418b030003010a087a1c41481c2b8f1221330000be0e0000d3260000f350000091040000f4feffff63020000b0040000bbf80700de020000a72a2f00000056038e0225025c02fa00a300be0022000000
UBX-NAV-PVT, len: 92
	itow: 560888000, year: 2022, month: 5, day: 21, hour: 11, min: 47, sec: 50, 
	valid: date: y, time: y, fully resolved: y, mag: n, tAcc: 52ns, nano: 233296ns, 
	fixType: 3D-fix, 
	flags: gnssFixOK: y, diffSoln: n, psmState: 0, headVehValid: n, carrSoln: 0, 
	flags2: confirmedAvai: n, confirmedDate: n, confirmedTime: n, 
	numSV: 8, lon: 121.2226476 deg, lat: 31.1373646 deg, height: 14173mm, hMSL: 4858mm, hAcc: 9433mm, vAcc: 20607mm, 
	velN: 890mm/S, velE: -192mm/S, velD: 300mm/S, gSpeed: 911mm/S, headMot: 348.39336 deg, sAcc: 734mm/S, headAcc: 21.45509 deg, pDop: 6.51
	flags3: invalidLlh: n, lastCorrectionAge: Not available, , headVeh: 0 deg, magDec: 0 deg, magAcc: 0 deg, (96 === 96)
UBX-NAV-DOP, len: 18, 
	itow: 560888000, gdop: 8.5, pdop: 6.51, tdop: 5.47, vdop: 6.02, hdop: 2.49, ndop: 1.62, edop: 1.89
ble: 23000000c0786e21e60705150b2f323734000000508f030003010a08ac1b41484e2f8f125d370000fa120000d92400007f5000007a03000040ffffff2c0100008f030000289b1302de020000e5bc2000000052038b0223025a02f900a200bd0023000000
UBX-NAV-PVT, len: 92
	itow: 560898000, year: 2022, month: 5, day: 21, hour: 11, min: 48, sec: 0, 
	valid: date: y, time: y, fully resolved: y, mag: n, tAcc: 40ns, nano: 234369ns, 
	fixType: 3D-fix, 
	flags: gnssFixOK: y, diffSoln: n, psmState: 0, headVehValid: n, carrSoln: 0, 
	flags2: confirmedAvai: n, confirmedDate: n, confirmedTime: n, 
	numSV: 9, lon: 121.2227106 deg, lat: 31.1374871 deg, height: 3377mm, hMSL: -5939mm, hAcc: 7085mm, vAcc: 15754mm, 
	velN: 1073mm/S, velE: 81mm/S, velD: 680mm/S, gSpeed: 1076mm/S, headMot: 9.20786 deg, sAcc: 571mm/S, headAcc: 31.07544 deg, pDop: 4.82
	flags3: invalidLlh: n, lastCorrectionAge: Not available, , headVeh: 0 deg, magDec: 0 deg, magAcc: 0 deg, (96 === 96)
UBX-NAV-DOP, len: 18, 
	itow: 560898000, gdop: 6.24, pdop: 4.82, tdop: 3.96, vdop: 4.52, hdop: 1.68, ndop: 1.03, edop: 1.33
ble: 24000000d09f6e21e60705150b300037280000008193030003010a09221e414817348f12310d0000cde8ffffad1b00008a3d00003104000051000000a802000034040000d20c0e003b020000d86a2f0000007002e2018c01c401a8006700850024000000
UBX-NAV-PVT, len: 92
	itow: 560908000, year: 2022, month: 5, day: 21, hour: 11, min: 48, sec: 10, 
	valid: date: y, time: y, fully resolved: y, mag: n, tAcc: 35ns, nano: 235415ns, 
	fixType: 3D-fix, 
	flags: gnssFixOK: y, diffSoln: n, psmState: 0, headVehValid: n, carrSoln: 0, 
	flags2: confirmedAvai: n, confirmedDate: n, confirmedTime: n, 
	numSV: 9, lon: 121.2227282 deg, lat: 31.1376195 deg, height: 267mm, hMSL: -9049mm, hAcc: 6115mm, vAcc: 13858mm, 
	velN: 1306mm/S, velE: -172mm/S, velD: 560mm/S, gSpeed: 1317mm/S, headMot: 354.2588 deg, sAcc: 576mm/S, headAcc: 26.39564 deg, pDop: 4.81
	flags3: invalidLlh: n, lastCorrectionAge: Not available, , headVeh: 0 deg, magDec: 0 deg, magAcc: 0 deg, (96 === 96)
UBX-NAV-DOP, len: 18, 
	itow: 560908000, gdop: 6.22, pdop: 4.81, tdop: 3.95, vdop: 4.51, hdop: 1.68, ndop: 1.02, edop: 1.33
ble: 25000000e0c66e21e60705150b300a37230000009797030003010a09d21e414843398f120b010000a7dcffffe3170000223600001a05000054ffffff3002000025050000588e1c0240020000cc46280000006e02e1018b01c301a8006600850025000000
UBX-NAV-PVT, len: 92
	itow: 560918000, year: 2022, month: 5, day: 21, hour: 11, min: 48, sec: 20, 
	valid: date: y, time: y, fully resolved: y, mag: n, tAcc: 38ns, nano: 236446ns, 
	fixType: 3D-fix, 
	flags: gnssFixOK: y, diffSoln: n, psmState: 0, headVehValid: n, carrSoln: 0, 
	flags2: confirmedAvai: n, confirmedDate: n, confirmedTime: n, 
	numSV: 9, lon: 121.2227131 deg, lat: 31.1377443 deg, height: 719mm, hMSL: -8597mm, hAcc: 6923mm, vAcc: 15059mm, 
	velN: 1167mm/S, velE: 22mm/S, velD: 237mm/S, gSpeed: 1167mm/S, headMot: 354.45745 deg, sAcc: 615mm/S, headAcc: 20.72211 deg, pDop: 4.8
	flags3: invalidLlh: n, lastCorrectionAge: Not available, , headVeh: 0 deg, magDec: 0 deg, magAcc: 0 deg, (96 === 96)
UBX-NAV-DOP, len: 18, 
	itow: 560918000, gdop: 6.2, pdop: 4.8, tdop: 3.94, vdop: 4.49, hdop: 1.67, ndop: 1.02, edop: 1.33
ble: 26000000f0ed6e21e60705150b301437260000009e9b030003010a093b1e4148233e8f12cf0200006bdeffff0b1b0000d33a00008f04000016000000ed0000008f040000f1db1c0267020000939e1f0000006c02e0018a01c101a7006600850026000000
UBX-NAV-PVT, len: 92
	itow: 560928000, year: 2022, month: 5, day: 21, hour: 11, min: 48, sec: 30, 
	valid: date: y, time: y, fully resolved: y, mag: n, tAcc: 30ns, nano: 237466ns, 
	fixType: 3D-fix, 
	flags: gnssFixOK: y, diffSoln: n, psmState: 0, headVehValid: n, carrSoln: 0, 
	flags2: confirmedAvai: n, confirmedDate: n, confirmedTime: n, 
	numSV: 9, lon: 121.2226847 deg, lat: 31.1378807 deg, height: 3207mm, hMSL: -6108mm, hAcc: 5354mm, vAcc: 11947mm, 
	velN: 1272mm/S, velE: -199mm/S, velD: 239mm/S, gSpeed: 1287mm/S, headMot: 351.87938 deg, sAcc: 368mm/S, headAcc: 14.0967 deg, pDop: 4.78
	flags3: invalidLlh: n, lastCorrectionAge: Not available, , headVeh: 0 deg, magDec: 0 deg, magAcc: 0 deg, (96 === 96)
UBX-NAV-DOP, len: 18, 
	itow: 560928000, gdop: 6.19, pdop: 4.78, tdop: 3.92, vdop: 4.48, hdop: 1.67, ndop: 1.02, edop: 1.32
ble: 2700000000156f21e60705150b301e371e0000009a9f030003010a091f1d414877438f12870c000024e8ffffea140000ab2e0000f804000039ffffffef00000007050000e2ec1802700100008682150000006b02de018801c001a7006600840027000000
UBX-NAV-PVT, len: 92
	itow: 560938000, year: 2022, month: 5, day: 21, hour: 11, min: 48, sec: 40, 
	valid: date: y, time: y, fully resolved: y, mag: n, tAcc: 26ns, nano: 238474ns, 
	fixType: 3D-fix, 
	flags: gnssFixOK: y, diffSoln: n, psmState: 0, headVehValid: n, carrSoln: 0, 
	flags2: confirmedAvai: n, confirmedDate: n, confirmedTime: n, 
	numSV: 9, lon: 121.2226794 deg, lat: 31.1380149 deg, height: 7828mm, hMSL: -1487mm, hAcc: 4673mm, vAcc: 10408mm, 
	velN: 748mm/S, velE: 345mm/S, velD: 209mm/S, gSpeed: 824mm/S, headMot: 13.1232 deg, sAcc: 509mm/S, headAcc: 41.26378 deg, pDop: 4.77
	flags3: invalidLlh: n, lastCorrectionAge: Not available, , headVeh: 0 deg, magDec: 0 deg, magAcc: 0 deg, (96 === 96)
UBX-NAV-DOP, len: 18, 
	itow: 560938000, gdop: 6.17, pdop: 4.77, tdop: 3.91, vdop: 4.47, hdop: 1.67, ndop: 1.02, edop: 1.32
ble: 28000000103c6f21e60705150b3028371a0000008aa3030003010a09ea1c4148b5488f12941e000031faffff41120000a8280000ec02000059010000d10000003803000040061400fd010000aaf63e0000006902dd018701bf01a7006600840028000000
UBX-NAV-PVT, len: 92
	itow: 560948000, year: 2022, month: 5, day: 21, hour: 11, min: 48, sec: 50, 
	valid: date: y, time: y, fully resolved: y, mag: n, tAcc: 26ns, nano: 239502ns, 
	fixType: 3D-fix, 
	flags: gnssFixOK: y, diffSoln: n, psmState: 0, headVehValid: n, carrSoln: 0, 
	flags2: confirmedAvai: n, confirmedDate: n, confirmedTime: n, 
	numSV: 9, lon: 121.2227158 deg, lat: 31.1381339 deg, height: 6583mm, hMSL: -2732mm, hAcc: 4640mm, vAcc: 10468mm, 
	velN: 1010mm/S, velE: 618mm/S, velD: 478mm/S, gSpeed: 1184mm/S, headMot: 26.07991 deg, sAcc: 532mm/S, headAcc: 26.84833 deg, pDop: 4.75
	flags3: invalidLlh: n, lastCorrectionAge: Not available, , headVeh: 0 deg, magDec: 0 deg, magAcc: 0 deg, (96 === 96)
UBX-NAV-DOP, len: 18, 
	itow: 560948000, gdop: 6.15, pdop: 4.75, tdop: 3.9, vdop: 4.45, hdop: 1.66, ndop: 1.02, edop: 1.31
ble: 2900000020636f21e60705150b3032371a0000008ea7030003010a09561e41485b4d8f12b719000054f5ffff20120000e4280000f20300006a020000de010000a004000077cb270014020000a1f7280000006702db018601bd01a6006600830029000000
UBX-NAV-PVT, len: 92
	itow: 560958000, year: 2022, month: 5, day: 21, hour: 11, min: 49, sec: 0, 
	valid: date: y, time: y, fully resolved: y, mag: n, tAcc: 27ns, nano: 240541ns, 
	fixType: 3D-fix, 
	flags: gnssFixOK: y, diffSoln: n, psmState: 0, headVehValid: n, carrSoln: 0, 
	flags2: confirmedAvai: n, confirmedDate: n, confirmedTime: n, 
	numSV: 8, lon: 121.2227574 deg, lat: 31.1382318 deg, height: -171mm, hMSL: -9487mm, hAcc: 4927mm, vAcc: 10877mm, 
	velN: 1029mm/S, velE: 53mm/S, velD: 1020mm/S, gSpeed: 1031mm/S, headMot: 29.54208 deg, sAcc: 520mm/S, headAcc: 34.57333 deg, pDop: 5.41
	flags3: invalidLlh: n, lastCorrectionAge: Not available, , headVeh: 0 deg, magDec: 0 deg, magAcc: 0 deg, (96 === 96)
UBX-NAV-DOP, len: 18, 
	itow: 560958000, gdop: 7.03, pdop: 5.41, tdop: 4.48, vdop: 5.1, hdop: 1.79, ndop: 1.06, edop: 1.45
ble: 2a000000308a6f21e60705150b3100371b0000009dab030003010a08f61f41482e518f1255fffffff1daffff3f1300007d2a00000504000035000000fc03000007040000e0132d000802000035c134000000bf021d02c001fe01b3006a0091002a000000
UBX-NAV-PVT, len: 92
	itow: 560968000, year: 2022, month: 5, day: 21, hour: 11, min: 49, sec: 10, 
	valid: date: y, time: y, fully resolved: y, mag: n, tAcc: 27ns, nano: 241560ns, 
	fixType: 3D-fix, 
	flags: gnssFixOK: y, diffSoln: n, psmState: 0, headVehValid: n, carrSoln: 0, 
	flags2: confirmedAvai: n, confirmedDate: n, confirmedTime: n, 
	numSV: 9, lon: 121.2227889 deg, lat: 31.1383523 deg, height: -1469mm, hMSL: -10784mm, hAcc: 4987mm, vAcc: 10903mm, 
	velN: 907mm/S, velE: -104mm/S, velD: 732mm/S, gSpeed: 912mm/S, headMot: 353.07089 deg, sAcc: 473mm/S, headAcc: 22.44635 deg, pDop: 4.73
	flags3: invalidLlh: n, lastCorrectionAge: Not available, , headVeh: 0 deg, magDec: 0 deg, magAcc: 0 deg, (96 === 96)
UBX-NAV-DOP, len: 18, 
	itow: 560968000, gdop: 6.11, pdop: 4.73, tdop: 3.87, vdop: 4.43, hdop: 1.66, ndop: 1.02, edop: 1.31
ble: 2b00000040b16f21e60705150b310a371b00000098af030003010a0931214148e3558f1243faffffe0d5ffff7b130000972a00008b03000098ffffffdc0200009003000051be1a02d90100001b40220000006302d9018301bb01a600660083002b000000
UBX-NAV-PVT, len: 92
	itow: 560978000, year: 2022, month: 5, day: 21, hour: 11, min: 49, sec: 20, 
	valid: date: y, time: y, fully resolved: y, mag: n, tAcc: 27ns, nano: 242575ns, 
	fixType: 3D-fix, 
	flags: gnssFixOK: y, diffSoln: n, psmState: 0, headVehValid: n, carrSoln: 0, 
	flags2: confirmedAvai: n, confirmedDate: n, confirmedTime: n, 
	numSV: 9, lon: 121.2227069 deg, lat: 31.1384481 deg, height: -1541mm, hMSL: -10856mm, hAcc: 4773mm, vAcc: 10847mm, 
	velN: 798mm/S, velE: -786mm/S, velD: 719mm/S, gSpeed: 1120mm/S, headMot: 314.67772 deg, sAcc: 465mm/S, headAcc: 17.02277 deg, pDop: 4.71
	flags3: invalidLlh: n, lastCorrectionAge: Not available, , headVeh: 0 deg, magDec: 0 deg, magAcc: 0 deg, (96 === 96)
UBX-NAV-DOP, len: 18, 
	itow: 560978000, gdop: 6.09, pdop: 4.71, tdop: 3.86, vdop: 4.41, hdop: 1.65, ndop: 1.02, edop: 1.3
ble: 2c00000050d86f21e60705150b3114371b0000008fb3030003010a09fd1d4148a1598f12fbf9ffff98d5ffffa51200005f2a00001e030000eefcffffcf02000060040000fc28e001d101000085f9190000006102d7018201b901a500660082002c000000
UBX-NAV-PVT, len: 92
	itow: 560988000, year: 2022, month: 5, day: 21, hour: 11, min: 49, sec: 30, 
	valid: date: y, time: y, fully resolved: y, mag: n, tAcc: 31ns, nano: 243598ns, 
	fixType: 3D-fix, 
	flags: gnssFixOK: y, diffSoln: n, psmState: 0, headVehValid: n, carrSoln: 0, 
	flags2: confirmedAvai: n, confirmedDate: n, confirmedTime: n, 
	numSV: 9, lon: 121.2226489 deg, lat: 31.1385502 deg, height: -4185mm, hMSL: -13500mm, hAcc: 5523mm, vAcc: 12495mm, 
	velN: 1151mm/S, velE: 83mm/S, velD: 493mm/S, gSpeed: 1154mm/S, headMot: 356.35307 deg, sAcc: 686mm/S, headAcc: 29.79186 deg, pDop: 4.7
	flags3: invalidLlh: n, lastCorrectionAge: Not available, , headVeh: 0 deg, magDec: 0 deg, magAcc: 0 deg, (96 === 96)
UBX-NAV-DOP, len: 18, 
	itow: 560988000, gdop: 6.08, pdop: 4.7, tdop: 3.85, vdop: 4.4, hdop: 1.65, ndop: 1.02, edop: 1.3
ble: 2d00000060ff6f21e60705150b311e371f0000008eb7030003010a09b91b41489e5d8f12a7efffff44cbffff93150000cf3000007f04000053000000ed010000820400006bc01f02ae02000072752d0000006002d6018101b801a500660082002d000000
UBX-NAV-PVT, len: 92
	itow: 560998000, year: 2022, month: 5, day: 21, hour: 11, min: 49, sec: 40, 
	valid: date: y, time: y, fully resolved: y, mag: n, tAcc: 33ns, nano: 244613ns, 
	fixType: 3D-fix, 
	flags: gnssFixOK: y, diffSoln: n, psmState: 0, headVehValid: n, carrSoln: 0, 
	flags2: confirmedAvai: n, confirmedDate: n, confirmedTime: n, 
	numSV: 9, lon: 121.2226623 deg, lat: 31.1386642 deg, height: -3357mm, hMSL: -12672mm, hAcc: 5956mm, vAcc: 13431mm, 
	velN: 1052mm/S, velE: 320mm/S, velD: 696mm/S, gSpeed: 1099mm/S, headMot: 14.4188 deg, sAcc: 605mm/S, headAcc: 27.53901 deg, pDop: 4.69
	flags3: invalidLlh: n, lastCorrectionAge: Not available, , headVeh: 0 deg, magDec: 0 deg, magAcc: 0 deg, (96 === 96)
UBX-NAV-DOP, len: 18, 
	itow: 560998000, gdop: 6.06, pdop: 4.69, tdop: 3.84, vdop: 4.39, hdop: 1.65, ndop: 1.02, edop: 1.29
ble: 2e00000070267021e60705150b3128372100000085bb030003010a093f1c414812628f12e3f2ffff80ceffff44170000773400001c04000040010000b80200004b040000580016005d0200006d052a0000005e02d5018001b701a500660081002e000000
UBX-NAV-PVT, len: 92
	itow: 561008000, year: 2022, month: 5, day: 21, hour: 11, min: 49, sec: 50, 
	valid: date: y, time: y, fully resolved: y, mag: n, tAcc: 34ns, nano: 245609ns, 
	fixType: 3D-fix, 
	flags: gnssFixOK: y, diffSoln: n, psmState: 0, headVehValid: n, carrSoln: 0, 
	flags2: confirmedAvai: n, confirmedDate: n, confirmedTime: n, 
	numSV: 9, lon: 121.2227278 deg, lat: 31.1387772 deg, height: 48mm, hMSL: -9267mm, hAcc: 6031mm, vAcc: 13916mm, 
	velN: 483mm/S, velE: 1830mm/S, velD: 572mm/S, gSpeed: 1892mm/S, headMot: 66.52118 deg, sAcc: 954mm/S, headAcc: 20.67225 deg, pDop: 4.67
	flags3: invalidLlh: n, lastCorrectionAge: Not available, , headVeh: 0 deg, magDec: 0 deg, magAcc: 0 deg, (96 === 96)
UBX-NAV-DOP, len: 18, 
	itow: 561008000, gdop: 6.04, pdop: 4.67, tdop: 3.83, vdop: 4.38, hdop: 1.64, ndop: 1.02, edop: 1.29
ble: 2f000000804d7021e60705150b3132372200000069bf030003010a09ce1e41487c668f1230000000cddbffff8f1700005c360000e3010000260700003c02000064070000d6806500ba030000198b1f0000005c02d3017f01b601a400660081002f000000
UBX-NAV-PVT, len: 92
	itow: 561018000, year: 2022, month: 5, day: 21, hour: 11, min: 50, sec: 0, 
	valid: date: y, time: y, fully resolved: y, mag: n, tAcc: 37ns, nano: 246612ns, 
	fixType: 3D-fix, 
	flags: gnssFixOK: y, diffSoln: n, psmState: 0, headVehValid: n, carrSoln: 0, 
	flags2: confirmedAvai: n, confirmedDate: n, confirmedTime: n, 
	numSV: 9, lon: 121.2228081 deg, lat: 31.1388649 deg, height: 452mm, hMSL: -8864mm, hAcc: 6821mm, vAcc: 15604mm, 
	velN: 691mm/S, velE: 316mm/S, velD: 323mm/S, gSpeed: 760mm/S, headMot: 50.73864 deg, sAcc: 709mm/S, headAcc: 42.36348 deg, pDop: 4.66
	flags3: invalidLlh: n, lastCorrectionAge: Not available, , headVeh: 0 deg, magDec: 0 deg, magAcc: 0 deg, (96 === 96)
UBX-NAV-DOP, len: 18, 
	itow: 561018000, gdop: 6.02, pdop: 4.66, tdop: 3.81, vdop: 4.36, hdop: 1.64, ndop: 1.02, edop: 1.29
ble: 3000000090747021e60705150b3200372500000054c3030003010a09f1214148e9698f12c401000060ddffffa51a0000f43c0000b30200003c01000043010000f8020000c86b4d00c50200003ca4400000005a02d2017d01b401a4006600810030000000
UBX-NAV-PVT, len: 92
	itow: 561028000, year: 2022, month: 5, day: 21, hour: 11, min: 50, sec: 10, 
	valid: date: y, time: y, fully resolved: y, mag: n, tAcc: 39ns, nano: 247628ns, 
	fixType: 3D-fix, 
	flags: gnssFixOK: y, diffSoln: n, psmState: 0, headVehValid: n, carrSoln: 0, 
	flags2: confirmedAvai: n, confirmedDate: n, confirmedTime: n, 
	numSV: 9, lon: 121.2229134 deg, lat: 31.1389423 deg, height: -2892mm, hMSL: -12207mm, hAcc: 7272mm, vAcc: 16382mm, 
	velN: 893mm/S, velE: 217mm/S, velD: 539mm/S, gSpeed: 918mm/S, headMot: 39.79166 deg, sAcc: 579mm/S, headAcc: 42.01529 deg, pDop: 4.65
	flags3: invalidLlh: n, lastCorrectionAge: Not available, , headVeh: 0 deg, magDec: 0 deg, magAcc: 0 deg, (96 === 96)
UBX-NAV-DOP, len: 18, 
	itow: 561028000, gdop: 6, pdop: 4.65, tdop: 3.8, vdop: 4.35, hdop: 1.64, ndop: 1.01, edop: 1.28
ble: 31000000a09b7021e60705150b320a37270000004cc7030003010a090e264148ef6c8f12b4f4ffff51d0ffff681c0000fe3f00007d030000d90000001b020000960300009eb73c0043020000391c400000005802d1017c01b301a4006500800031000000
UBX-NAV-PVT, len: 92
	itow: 561038000, year: 2022, month: 5, day: 21, hour: 11, min: 50, sec: 20, 
	valid: date: y, time: y, fully resolved: y, mag: n, tAcc: 41ns, nano: 248634ns, 
	fixType: 3D-fix, 
	flags: gnssFixOK: y, diffSoln: n, psmState: 0, headVehValid: n, carrSoln: 0, 
	flags2: confirmedAvai: n, confirmedDate: n, confirmedTime: n, 
	numSV: 9, lon: 121.2230306 deg, lat: 31.13901 deg, height: -3986mm, hMSL: -13302mm, hAcc: 7062mm, vAcc: 17357mm, 
	velN: 173mm/S, velE: 1044mm/S, velD: 415mm/S, gSpeed: 1058mm/S, headMot: 52.2128 deg, sAcc: 847mm/S, headAcc: 41.79528 deg, pDop: 4.63
	flags3: invalidLlh: n, lastCorrectionAge: Not available, , headVeh: 0 deg, magDec: 0 deg, magAcc: 0 deg, (96 === 96)
UBX-NAV-DOP, len: 18, 
	itow: 561038000, gdop: 5.99, pdop: 4.63, tdop: 3.79, vdop: 4.34, hdop: 1.63, ndop: 1.01, edop: 1.28
ble: 32000000b0c27021e60705150b321437290000003acb030003010a09a22a4148946f8f126ef0ffff0accffff961b0000cd430000ad000000140400009f01000022040000a0ab4f004f03000048c63f0000005702cf017b01b201a3006500800032000000
UBX-NAV-PVT, len: 92
	itow: 561048000, year: 2022, month: 5, day: 21, hour: 11, min: 50, sec: 30, 
	valid: date: y, time: y, fully resolved: y, mag: n, tAcc: 45ns, nano: 249642ns, 
	fixType: 3D-fix, 
	flags: gnssFixOK: y, diffSoln: n, psmState: 0, headVehValid: n, carrSoln: 0, 
	flags2: confirmedAvai: n, confirmedDate: n, confirmedTime: n, 
	numSV: 9, lon: 121.2231192 deg, lat: 31.1390818 deg, height: -5514mm, hMSL: -14829mm, hAcc: 7755mm, vAcc: 19070mm, 
	velN: 1027mm/S, velE: 543mm/S, velD: 637mm/S, gSpeed: 1161mm/S, headMot: 37.03651 deg, sAcc: 697mm/S, headAcc: 34.87864 deg, pDop: 4.62
	flags3: invalidLlh: n, lastCorrectionAge: Not available, , headVeh: 0 deg, magDec: 0 deg, magAcc: 0 deg, (96 === 96)
UBX-NAV-DOP, len: 18, 
	itow: 561048000, gdop: 5.97, pdop: 4.62, tdop: 3.78, vdop: 4.32, hdop: 1.63, ndop: 1.01, edop: 1.28
ble: 33000000c0e97021e60705150b321e372d0000002acf030003010a09182e414862728f1276eaffff13c6ffff4b1e00007e4a0000030400001f0200007d0200008904000063833800b90200007838350000005502ce017a01b001a3006500800033000000
UBX-NAV-PVT, len: 92
	itow: 561058000, year: 2022, month: 5, day: 21, hour: 11, min: 50, sec: 40, 
	valid: date: y, time: y, fully resolved: y, mag: n, tAcc: 44ns, nano: 250628ns, 
	fixType: 3D-fix, 
	flags: gnssFixOK: y, diffSoln: n, psmState: 0, headVehValid: n, carrSoln: 0, 
	flags2: confirmedAvai: n, confirmedDate: n, confirmedTime: n, 
	numSV: 8, lon: 121.2232448 deg, lat: 31.1391899 deg, height: -662mm, hMSL: -9978mm, hAcc: 7029mm, vAcc: 18936mm, 
	velN: 1397mm/S, velE: 362mm/S, velD: 314mm/S, gSpeed: 1443mm/S, headMot: 20.24954 deg, sAcc: 572mm/S, headAcc: 28.34048 deg, pDop: 5.27
	flags3: invalidLlh: n, lastCorrectionAge: Not available, , headVeh: 0 deg, magDec: 0 deg, magAcc: 0 deg, (96 === 96)
UBX-NAV-DOP, len: 18, 
	itow: 561058000, gdop: 6.84, pdop: 5.27, tdop: 4.36, vdop: 4.96, hdop: 1.78, ndop: 1.05, edop: 1.44
ble: 34000000d0107121e60705150b3228372c00000004d3030003010a08003341489b768f126afdffff06d9ffff751b0000f8490000750500006a0100003a010000a3050000fae51e003c020000803e2b000000ac020f02b401f001b2006900900034000000
UBX-NAV-PVT, len: 92
	itow: 561068000, year: 2022, month: 5, day: 21, hour: 11, min: 50, sec: 50, 
	valid: date: y, time: y, fully resolved: y, mag: n, tAcc: 39ns, nano: 251612ns, 
	fixType: 3D-fix, 
	flags: gnssFixOK: y, diffSoln: n, psmState: 0, headVehValid: n, carrSoln: 0, 
	flags2: confirmedAvai: n, confirmedDate: n, confirmedTime: n, 
	numSV: 9, lon: 121.2232811 deg, lat: 31.1393089 deg, height: 5458mm, hMSL: -3858mm, hAcc: 6622mm, vAcc: 16461mm, 
	velN: 1229mm/S, velE: 258mm/S, velD: 437mm/S, gSpeed: 1256mm/S, headMot: 9.98538 deg, sAcc: 563mm/S, headAcc: 24.45353 deg, pDop: 4.6
	flags3: invalidLlh: n, lastCorrectionAge: Not available, , headVeh: 0 deg, magDec: 0 deg, magAcc: 0 deg, (96 === 96)
UBX-NAV-DOP, len: 18, 
	itow: 561068000, gdop: 5.93, pdop: 4.6, tdop: 3.75, vdop: 4.3, hdop: 1.62, ndop: 1.01, edop: 1.27
ble: 35000000e0377121e60705150b32323727000000dcd6030003010a096b344148417b8f1252150000eef0ffffde1900004d400000cd04000002010000b5010000e80400008a3c0f00330200002950250000005102cc017701ae01a20065007f0035000000
UBX-NAV-PVT, len: 92
	itow: 561078000, year: 2022, month: 5, day: 21, hour: 11, min: 51, sec: 0, 
	valid: date: y, time: y, fully resolved: y, mag: n, tAcc: 39ns, nano: 252602ns, 
	fixType: 3D-fix, 
	flags: gnssFixOK: y, diffSoln: n, psmState: 0, headVehValid: n, carrSoln: 0, 
	flags2: confirmedAvai: n, confirmedDate: n, confirmedTime: n, 
	numSV: 9, lon: 121.2233078 deg, lat: 31.139429 deg, height: 8205mm, hMSL: -1111mm, hAcc: 6770mm, vAcc: 16284mm, 
	velN: 1260mm/S, velE: 354mm/S, velD: 282mm/S, gSpeed: 1309mm/S, headMot: 10.28098 deg, sAcc: 715mm/S, headAcc: 31.71059 deg, pDop: 4.58
	flags3: invalidLlh: n, lastCorrectionAge: Not available, , headVeh: 0 deg, magDec: 0 deg, magAcc: 0 deg, (96 === 96)
UBX-NAV-DOP, len: 18, 
	itow: 561078000, gdop: 5.92, pdop: 4.58, tdop: 3.74, vdop: 4.29, hdop: 1.62, ndop: 1.01, edop: 1.27
ble: 36000000f05e7121e60705150b33003727000000bada030003010a0976354148f27f8f120d200000a9fbffff721a00009c3f0000ec040000620100001a0100001d05000002b00f00cb020000f362300000005002ca017601ad01a20065007f0036000000
UBX-NAV-PVT, len: 92
	itow: 561088000, year: 2022, month: 5, day: 21, hour: 11, min: 51, sec: 10, 
	valid: date: y, time: y, fully resolved: y, mag: n, tAcc: 36ns, nano: 253600ns, 
	fixType: 3D-fix, 
	flags: gnssFixOK: y, diffSoln: n, psmState: 0, headVehValid: n, carrSoln: 0, 
	flags2: confirmedAvai: n, confirmedDate: n, confirmedTime: n, 
	numSV: 9, lon: 121.2233229 deg, lat: 31.139547 deg, height: 8349mm, hMSL: -967mm, hAcc: 6495mm, vAcc: 14661mm, 
	velN: 1081mm/S, velE: 159mm/S, velD: 329mm/S, gSpeed: 1092mm/S, headMot: 7.00229 deg, sAcc: 669mm/S, headAcc: 26.43552 deg, pDop: 4.57
	flags3: invalidLlh: n, lastCorrectionAge: Not available, , headVeh: 0 deg, magDec: 0 deg, magAcc: 0 deg, (96 === 96)
UBX-NAV-DOP, len: 18, 
	itow: 561088000, gdop: 5.9, pdop: 4.57, tdop: 3.73, vdop: 4.27, hdop: 1.62, ndop: 1.01, edop: 1.26
ble: 3700000000867121e60705150b330a3724000000a0de030003010a090d3641488e848f129d20000039fcffff5f19000045390000390400009f000000490100004404000045af0a009d0200006056280000004e02c9017501ab01a20065007e0037000000
UBX-NAV-PVT, len: 92
	itow: 561098000, year: 2022, month: 5, day: 21, hour: 11, min: 51, sec: 20, 
	valid: date: y, time: y, fully resolved: y, mag: n, tAcc: 33ns, nano: 254577ns, 
	fixType: 3D-fix, 
	flags: gnssFixOK: y, diffSoln: n, psmState: 0, headVehValid: n, carrSoln: 0, 
	flags2: confirmedAvai: n, confirmedDate: n, confirmedTime: n, 
	numSV: 9, lon: 121.2232987 deg, lat: 31.1396831 deg, height: 14852mm, hMSL: 5536mm, hAcc: 6072mm, vAcc: 13629mm, 
	velN: 1089mm/S, velE: 235mm/S, velD: 238mm/S, gSpeed: 1114mm/S, headMot: 6.05888 deg, sAcc: 587mm/S, headAcc: 35.78724 deg, pDop: 4.56
	flags3: invalidLlh: n, lastCorrectionAge: Not available, , headVeh: 0 deg, magDec: 0 deg, magAcc: 0 deg, (96 === 96)
UBX-NAV-DOP, len: 18, 
	itow: 561098000, gdop: 5.88, pdop: 4.56, tdop: 3.72, vdop: 4.26, hdop: 1.61, ndop: 1.01, edop: 1.26
ble: 3800000010ad7121e60705150b3314372100000071e2030003010a091b354148df898f12043a0000a0150000b81700003d35000041040000eb000000ee0000005a040000c03e09004b020000649b360000004c02c8017401aa01a10065007e0038000000
UBX-NAV-PVT, len: 92
	itow: 561108000, year: 2022, month: 5, day: 21, hour: 11, min: 51, sec: 30, 
	valid: date: y, time: y, fully resolved: y, mag: n, tAcc: 32ns, nano: 255578ns, 
	fixType: 3D-fix, 
	flags: gnssFixOK: y, diffSoln: n, psmState: 0, headVehValid: n, carrSoln: 0, 
	flags2: confirmedAvai: n, confirmedDate: n, confirmedTime: n, 
	numSV: 10, lon: 121.223293 deg, lat: 31.1398121 deg, height: 13049mm, hMSL: 3733mm, hAcc: 5971mm, vAcc: 13092mm, 
	velN: 1289mm/S, velE: -63mm/S, velD: 243mm/S, gSpeed: 1291mm/S, headMot: 354.57241 deg, sAcc: 559mm/S, headAcc: 21.17158 deg, pDop: 3.17
	flags3: invalidLlh: n, lastCorrectionAge: Not available, , headVeh: 0 deg, magDec: 0 deg, magAcc: 0 deg, (96 === 96)
UBX-NAV-DOP, len: 18, 
	itow: 561108000, gdop: 4.01, pdop: 3.17, tdop: 2.46, vdop: 2.94, hdop: 1.17, ndop: 0.84, edop: 0.82
ble: 3900000020d47121e60705150b331e37200000005ae6030003010a0ae2344148e98e8f12f9320000950e0000531700002433000009050000c1fffffff30000000b050000d9081d022f020000264e2000000091013d01f600260175005400520039000000
UBX-NAV-PVT, len: 92
	itow: 561118000, year: 2022, month: 5, day: 21, hour: 11, min: 51, sec: 40, 
	valid: date: y, time: y, fully resolved: y, mag: n, tAcc: 30ns, nano: 256563ns, 
	fixType: 3D-fix, 
	flags: gnssFixOK: y, diffSoln: n, psmState: 0, headVehValid: n, carrSoln: 0, 
	flags2: confirmedAvai: n, confirmedDate: n, confirmedTime: n, 
	numSV: 10, lon: 121.2233099 deg, lat: 31.1399439 deg, height: 16327mm, hMSL: 7011mm, hAcc: 5883mm, vAcc: 12802mm, 
	velN: 1009mm/S, velE: 251mm/S, velD: -128mm/S, gSpeed: 1040mm/S, headMot: 10.89487 deg, sAcc: 596mm/S, headAcc: 25.06549 deg, pDop: 3.16
	flags3: invalidLlh: n, lastCorrectionAge: Not available, , headVeh: 0 deg, magDec: 0 deg, magAcc: 0 deg, (96 === 96)
UBX-NAV-DOP, len: 18, 
	itow: 561118000, gdop: 4.01, pdop: 3.16, tdop: 2.45, vdop: 2.94, hdop: 1.17, ndop: 0.84, edop: 0.82
